id,Name,lat,long
1,@ City Sukhumvit 101/1,13.6851257,100.6144266
2,125 SATHORN,13.7225918,100.5337768
3,15 Suite,13.745824,100.5587234
4,15 Sukhumvit Residences,13.7419708,100.5583206
5,168 Sukhumvit 36,13.7169748,100.5762937
6,185 Rajadamri,13.7353925,100.5392841
7,28 Chidlom,13.746691,100.5441112
8,33 Tower,13.7357903,100.5683309
9,333 Riverside,13.8068134,100.5195996
10,39 by Sansiri,13.7317672,100.5704219
11,39 Suites,13.73669,100.5743684
12,49 Plus,13.730524,100.5756169
13,49 Suite,13.72948769,100.5760757
14,59 Heritage,13.7244706,100.5818074
15,624 Condolette Ladprao,13.7665252,100.6492301
16,98 Wireless,13.7416703,100.5470702
17,A Pool Condo Bangna,13.6643381,100.6316794
18,A Space Asoke - Ratchada,13.7583127,100.5599078
19,A Space Hideaway Asoke - RatchadaÕ“§“√ XYZ,13.7575601,100.5611707
20,A Space I.D. Asoke - Ratchada,13.7568124,100.5598535
21,A Space Kaset - Nawamin,13.8328517,100.6164662
22,A Space Me Sukhumvit 77,13.7132434,100.6346902
23,Ables Ladprao 27,13.8045746,100.578495
24,THE LINE Phahonyothin Park,13.8176812,100.565001
25,Abstracts Sukhumvit 66 / 1,13.6797525,100.6071463
26,Acadamia Grand Tower,13.7293937,100.5729278
27,Aequa Sukhumvit 49,13.7276583,100.575469
28,AESTIQ Thonglor,13.7381181,100.584166
29,Aguston Sukhumvit 22,13.7251898,100.5646731
30,Airborne Place,13.9149474,100.5885965
31,Airlink Residence,13.7363594,100.7446371
32,All Seasons Mansion,13.7395274,100.5484397
33,Altitude Define,13.7319102,100.52622
34,Altitude Symphony Charoenkrung - Sathorn,13.7099361,100.5139942
35,Amanta Lumpini,13.7230199,100.5511665
36,Amanta Ratchada,13.7660786,100.5681513
37,Amaranta Residence,13.7794113,100.5759438
38,Anantara Baan Rajprasong,13.7388116,100.541253
39,Anil Sathorn 12,13.7210586,100.5257929
40,Apool Condo,13.6643381,100.6316794
41,Arden Phatthanakan,13.7312591,100.6064688
42,Aree Place Phahonyothin,13.7806789,100.5433195
43,Aree Place Sukhumvit 26,13.7244768,100.5709547
44,Areesamphan Park,13.7733826,100.5381515
45,Art @ Thonglor 25,13.7400765,100.580918
46,Artemis Sukhumvit 77,13.711005,100.6045884
47,Artisan Ratchada,13.7691431,100.5827871
48,Asakan Place Srinakarindra,13.7345528,100.641608
49,Ascott Sathorn,13.7206495,100.5283001
50,Ashton Asoke,13.7387832,100.5610713
51,Ashton Chula - Silom,13.7312985,100.5310158
52,Ashton Morph 38,13.72086444,100.578918
53,Ashton Silom,13.7262582,100.5268935
54,Asoke Place,13.7416567,100.5621259
55,Asoke Tower,13.745377,100.5624318
56,Aspen Condo Lasalle,13.6553479,100.6463239
57,Aspire Asoke-Ratchada,13.7642812,100.560907
58,Aspire Ladprao 113,13.7697444,100.6389196
59,Aspire Ngamwongwan,13.8561864,100.5478828
60,Aspire Rama 9,13.754693,100.5668766
61,Aspire Ratchada - Wongsawang,13.8306759,100.5253235
62,Aspire Sathorn - Ratchaphruek,13.7163995,100.4584855
63,Aspire Sathorn - Taksin,13.712607,100.4643638
64,Aspire Sathorn - Thapra,13.715682,100.4798135
65,Aspire Srinakarin,13.697327,100.6510304
66,Aspire Sukhumvit 48,13.7110838,100.5939315
67,Aspire Sukhumvit-Onnut,13.7103903,100.6137298
68,Aspire Wutthakat,13.7139676,100.4718375
69,Assagarn Place Ladprao 85,13.7839059,100.6140104
70,Assagarn Place Ramkhamhaeng,13.761554,100.6358327
71,Athenee Residence,13.7413804,100.5493226
72,Atmoz Ladprao 15,13.8146545,100.5706907
73,Attitude Lasalle,13.6597898,100.607628
74,August Condo Charoenkrung 80,13.699031,100.4964315
75,Avacas Garden Family House Condominium,13.8237283,100.6102456
76,Avenue 61,13.7249088,100.5826664
77,B Republic,13.6843344,100.6245615
78,Baan Aananda,13.7267875,100.5842399
79,Baan Chao Praya,13.7327404,100.5094313
80,Baan Chom Dao,13.7117417,100.6150865
81,Baan Eua Arthorn Bang Bua Thong,13.93774,100.39248
82,Baan Eua Arthorn Buengkum,13.7904668,100.6686692
83,Baan Eua Arthorn khlong thanon,13.8919107,100.632429
84,Baan Eua Arthorn Minburi,13.8166992,100.7144721
85,Baan Eua Arthorn Ramindra 117,13.86852852,100.6669836
86,Baan Eua Arthorn Saimai,13.9221319,100.6550175
87,Baan Kanchanakom,13.7790305,100.5475854
88,Baan Klang Krung Resort (Ratchada 7),13.7745272,100.5694109
89,Baan Klang Krung Siam - Pathumwan,13.7525914,100.5328927
90,Baan Lux - Sathon,13.7154018,100.5505469
91,Baan Navatara,13.8253754,100.6295763
92,Baan Nonsi,13.7061472,100.5365395
93,Baan Nunthasiri,13.7218721,100.5439502
94,Baan On Nut Sukhumvit 77,13.7085357,100.6187882
95,Baan Pathumwan,13.7549248,100.5323638
96,Baan Phaholyothin Place,13.7832167,100.5465243
97,Baan Piya Sathorn,13.722746,100.5374037
98,Baan Ploenchit,13.7368673,100.5507098
99,Baan Preuksasiri Suanplu,13.7202346,100.5385116
100,Baan Prida,13.7384886,100.556278
101,Baan Prompong,13.7429803,100.5720958
102,Baan Ratchada,13.7878704,100.5902532
103,Baan Rimtarn,13.7234567,100.6769403
104,Baan Samsen,13.7910183,100.5162455
105,Baan Saraan,13.7459913,100.5691177
106,Baan Sathorn,13.7206011,100.5455594
107,Baan Sathorn Chaopraya,13.71881783,100.5091026
108,Baan Sindhorn,13.7382636,100.5434503
109,Baan Siri 24,13.7261917,100.5679446
110,Baan Siri 31,13.7378837,100.5663373
111,Baan Siri Ruedee,13.7412308,100.5497264
112,Baan Siri Sathorn,13.7172747,100.547411
113,Baan Siri Sathorn Suanplu,13.70865711,100.5383717
114,Baan Siri Silom,13.7206227,100.5211907
115,Baan Siri Sukhumvit 10,13.7370581,100.5568615
116,Baan Siri Sukhumvit 13,13.74749,100.5583765
117,Baan Siriyenakat,13.7165785,100.5469013
118,Baan Somthavil,13.7390897,100.5406057
119,Baan Suan Bangkhen,13.880281,100.6125189
120,Baan Suan Sue Trong,13.7926183,100.6174453
121,Baan Suan Sukhothai,13.7813215,100.5116243
122,Baan Suan Sukhumvit,13.7065113,100.6323191
123,Baan Suanpetch,13.7317549,100.5713964
124,Baan Suanthon Ratchada,13.8266999,100.5833249
125,Baan Sukhothai Ramkhamhaeng,13.7580516,100.6342848
126,Baan Sukhumvit,13.718449,100.5734741
127,Baan Sukhumvit 77,13.720672,100.6159876
128,Baan Suksan,13.7429678,100.5647854
129,Baan Tri - wit,13.8242097,100.6187746
130,Baan Vipavee,13.8027565,100.5610128
131,Baan Yen Akard,13.7114919,100.5436363
132,Baanruenrom Bangna,13.670195,100.6429464
133,Bang Ao Riverside,13.8040438,100.5137742
134,Bangkhae Condotown,13.7131257,100.4221137
135,Bangkhunnon Rimnam,13.777224,100.458625
136,Bangkok Feliz @ Krungthonburi Station,13.7223259,100.5043027
137,Bangkok Feliz Bangkae Station,13.7108229,100.4198198
138,Bangkok Feliz Major Ratchayothin,13.8292797,100.5701555
139,Bangkok Feliz Sathorn - Taksin,13.7218616,100.5048338
140,Bangkok Feliz Sukhumvit 69,13.715547,100.5920347
141,Bangkok Feliz Vibhavadi 30,13.8231767,100.5629152
142,Bangkok Garden,13.7016142,100.5359646
143,Bangkok Horizon P 48,13.7157169,100.44563
144,Bangkok Horizon Phetkasem,13.7137949,100.4411845
145,Bangkok Horizon Ramkhamhaeng,13.7624131,100.6487084
146,Bangkok Horizon Ratchada - Thapra,13.7077113,100.4800817
147,Bangkok Horizon Sathorn,13.7126875,100.5331569
148,Bangkok Noi Waterside,13.7731204,100.4704723
149,Bangkok River Marina,13.7878269,100.5041896
150,Bangna Residence,13.6748357,100.5990921
151,Bangyeekhan Condominium,13.77165582,100.4925661
152,Banyan Tree Residences Bangkok,13.7323659,100.5096466
153,Baxtor Paholyothin 14,13.7866167,100.5529954
154,Be You Chokchai 4,13.7996324,100.5971794
155,BEATNIQ Sukhumvit 32,13.726175,100.575635
156,Belgravia Residences,13.726316,100.5738187
157,Belle Grand Rama 9,13.7600705,100.5691948
158,Belle Park Residence,13.7003888,100.5369971
159,Beverly 33,13.7351585,100.5673572
160,Beverly Hills Mansion,13.7242273,100.588359
161,Beverly Tower Condo,13.7478043,100.5574177
162,Beyond Sukhumvit,13.6765615,100.6031484
163,Bleisure Charan 96/1,13.8061295,100.513077
164,Bliz Condominium Bearing,13.652586,100.6055407
165,Bliz Condominium Ladprao 107,13.7731018,100.6343388
166,Bliz Condominium Rama 9 - Hua Mak,13.7399712,100.6442666
167,Blocs 77,13.7103615,100.6017758
168,Blossom Condo @ Fashion Beyond,13.8185256,100.6793074
169,Blossom Condo @ Sathorn - Charoenrat,13.7108858,100.5199956
170,Bobae Tower,13.7540109,100.5150872
171,Bodin Suite Home,13.7687263,100.6134478
172,Boutique Ratchada 17,13.7849028,100.5697318
173,Bridge Phaholyothin 37,13.8328396,100.5699362
174,Bridge Sathorn - Narathiwas,13.7037512,100.5399795
175,Bright Sukhumvit 24,13.723856,100.5663463
176,Bright Wongwian Yai,13.7195345,100.4905915
177,Brighton Place,13.7484852,100.5886367
178,Brix Condominium,13.783801,100.4936629
179,Brown Condo Phahol - Sapanmai,13.8867122,100.6030703
180,Brown Condo Ratchada 32,13.8183153,100.5846831
181,BTS Residence,13.7957917,100.5581403
182,C Ekkamai,13.7400215,100.5897075
183,C Place Ladprao 18,13.8029727,100.5701438
184,C&C 29 Condo,13.7932951,100.5590716
185,Canapaya Residences,13.68775606,100.5137682
186,Casa Condo Ratchada - Ratchaphruek,13.7134954,100.4763057
187,Casa Condo Ratchada Thapra,13.71364592,100.4772375
188,Casa Condo Sukhumvit 97,13.6979876,100.6067948
189,Casa de Sansara,13.88383741,100.6054632
190,Castle Hill Mansion,13.7260995,100.5864183
191,Ceil by Sansiri,13.7305582,100.5878006
192,Celes Asoke,13.738256,100.5617912
193,Central City East Tower,13.6709981,100.6354484
194,Central Ratchayothin ParkCondominium,13.828634,100.5703576
195,Centric Ari Station,13.7779571,100.5425685
196,Centric Place Ari 4 - Phaholyothin,13.784213,100.5440174
197,Centric Ratchada - Huai Khwang,13.7804654,100.5739594
198,Centric Ratchada - Suthisan,13.7899246,100.5735133
199,Centric Ratchayothin,13.8319661,100.5713078
200,Centric Sathorn - Saint Louis,13.7188125,100.5271405
201,Centric Scene Aree 2,13.7798662,100.5420748
202,Centric Scene Phaholyothin 9,13.786044,100.5460392
203,Centric Scene Ratchavipha,13.8296909,100.5334406
204,Centric Scene Sukhumvit 64,13.6837594,100.6101751
205,Centurion Park,13.7828157,100.5415125
206,Chalermnit Art De Maison,13.7294947,100.5783541
207,Chambers Chaan Ladprao - Wanghin,13.826403,100.5920239
208,Chambers Cher Ratchada Ramintra,13.820003,100.6673502
209,Chambers On - nut Station,13.7051847,100.6035122
210,Chambers Ramintra,13.8198451,100.6626237
211,Chamchuri Square Residence,13.7332332,100.5294427
212,Chapter Charoennakhorn-Riverside,13.7131349,100.5052584
213,Chapter Chula-Samyan,13.7314662,100.5235101
214,Chapter One,13.7718401,100.5796085
215,Chapter One Flow Bangpo,13.8121895,100.5208307
216,Chapter One Midtown Ladprao 24,13.8064358,100.5726549
217,Chapter One Modern Dutch Ratburana 33,13.6761357,100.518665
218,Chapter One Shine Bangpo,13.81269481,100.5210024
219,Chapter One The Campus Kaset,13.8384901,100.5747007
220,Chapter One the Campus Ladprao 1,13.8140554,100.565229
221,Chapter Thonglor 25,13.7429836,100.5838819
222,Charan Garden,13.7373246,100.4375927
223,Charoenkrung Place,13.6980161,100.4952011
224,Charoennakorn River Place,13.70716,100.4931343
225,Chateau in Town Charansanitwong 96/2,13.8076235,100.5128471
226,Chateau In Town Major Ratchayothin,13.8296227,100.5725917
227,Chateau In Town Major Ratchayothin 2,13.8314587,100.5754448
228,Chateau In Town Phaholyothin 11,13.7877258,100.5445986
229,Chateau In Town Phaholyothin 14,13.785965,100.5491769
230,Chateau In Town Phaholyothin 14 - 2,13.7868844,100.548183
231,Chateau In Town Rama 8,13.7718995,100.4928005
232,Chateau In Town Ratchada 13,13.7821292,100.5709988
233,Chateau In Town Ratchada 17,13.7847332,100.5722244
234,Chateau In Town Ratchada 19,13.799381,100.573846
235,Chateau In Town Ratchada 20,13.7923256,100.5757051
236,Chateau In Town Ratchada 20 - 2,13.7924208,100.5759821
237,CHATEAU IN TOWN RATCHADA 36,13.8210272,100.5885632
238,Chateau In Town Sukhumvit 62/1,13.6926275,100.6053491
239,Chateau in Town Sukhumvit 64,13.6901142,100.6051906
240,Chateau In Town Vibhavadi 10,13.7910999,100.5630956
241,Chateau In Town Vibhavadi 30,13.82306171,100.5624265
242,Chatrium Residence Riverside,13.7108458,100.5095806
243,Chewathai Hallmark Charan 13,13.74047435,100.4667879
244,Chewathai Interchange,13.8062392,100.529729
245,Chewathai Kaset-Nawamin,13.8403102,100.5875648
246,Chewathai Phetkasem 27,13.7178692,100.4538443
247,Chewathai Pinklao,13.7704363,100.4872581
248,Chewathai Ramkamhaeng,13.7619079,100.6329357
249,Chewathai Ratchaprarop,13.76155055,100.5431011
250,Chewathai Residence Asoke,13.7539417,100.5643033
251,Chewathai Residence Bang Pho,13.8061047,100.5223715
252,Chidlom Place,13.7483242,100.544346
253,Chrisma Condo Ramintra,13.8276979,100.6754887
254,Ciela Charan 13 Station,13.7407653,100.4702574
255,CIELA Sripatum,13.855937,100.5849566
256,Circle Living Prototype,13.7503655,100.5561816
257,Circle Condominium,13.7496468,100.5558679
258,Circle Rein Sukhumvit 12,13.7356367,100.5577985
259,Circle Sukhumvit 11,13.7458539,100.5560514
260,CitiSmart Sukhumvit 18,13.7347952,100.5622594
261,City Home Ratchada,13.7716035,100.5759945
262,City Home Ratchada - Pinklao,13.8053355,100.5104014
263,City Home Srinakarin,13.6549448,100.6477593
264,City Home Sukhumvit,13.6808551,100.6108019
265,City Home Tha - Phra Intersection,13.7284513,100.4740986
266,City Lakes Tower Sukhumvit 16,13.7336812,100.5610784
267,City Living Ratchada,13.7710911,100.5764031
268,City Room Ratchada - Suthisan,13.7900239,100.5725431
269,City Villa,13.77093713,100.6295606
270,Click Condo Sukhumvit 65,13.7225769,100.5878896
271,Cloud Residences SKV 23,13.7389082,100.5648995
272,CLOUD Thonglor-Phetchaburi,13.746375,100.5766627
273,Clover Ladprao 83,13.7872679,100.6140293
274,COCO Parc,13.722191,100.5534419
275,Collezio Sathorn - Pipat,13.7234511,100.5317561
276,Commonwealth Pinklao,13.7766602,100.4841333
277,Condo One Ladprao 15,13.8091656,100.5708353
278,Condo One Sathorn,13.7125,100.549036
279,Condo One Siam,13.7489761,100.5275199
280,Condo One Soho,13.7362913,100.5141998
281,Condo One Sukhumvit 52,13.7039946,100.5996251
282,Condo One Sukhumvit 67,13.7182706,100.5900997
283,Condo One Thonglor,13.7216579,100.5804701
284,Condo One X Sathorn - Narathiwat,13.7000418,100.5357145
285,Condo One X Sukhumvit 26,13.725074,100.5688826
286,Condo U @ Huamak Station,13.7509467,100.6362283
287,Condo U Kaset Nawamin,13.8377365,100.5824566
288,Condo U Ratchayothin,13.8348742,100.5809208
289,Condo U Vibha - Ladprao,13.8028256,100.5618085
290,Condolette Dwell Sukhumvit 26,13.7257145,100.5708737
291,Condolette Ize Ratchathewi,13.7533166,100.5309042
292,Condolette Light Convent,13.7250498,100.533078
293,Condolette Midst Rama 9,13.7556667,100.5663737
294,Condolette Pixel Sathorn,13.7182768,100.5492522
295,CONNER Ratchathewi,13.7539998,100.5290959
296,Cooper Siam,13.7460599,100.5223991
297,Country Complex,13.6738155,100.5997125
298,Crystal Garden,13.7351017,100.5534633
299,CU Terrace,13.7406289,100.5253776
300,D 25 Thonglor,13.7391018,100.5827252
301,D 65,13.7217594,100.5885704
302,D Condo Charan - Bangkhunnon,13.770472,100.469651
303,D Condo Onnut - Suvarnabhumi,13.72121,100.7211156
304,D Condo Ramindra,13.8535638,100.6361326
305,D Condo Ramkhamhaeng,13.7648128,100.6536771
306,D Condo Ramkhamhaeng 64,13.7648128,100.6536771
307,D Condo Ratchada 19,13.79991,100.5735675
308,D' Mura Ratchayothin,13.837108,100.5835053
309,D.S. Tower 1 Sukhumvit 33,13.7373488,100.5686529
310,D.S. Tower 2 Sukhumvit 39,13.7405995,100.5708083
311,Dalin Place,13.8892687,100.601131
312,dBURA Pran Nok,13.7568529,100.477617
313,Dcondo Campus Resort Ratchapruek - Charan 13,13.7391584,100.4479944
314,DCondo Onnut Rama 9,13.7303733,100.6997389
315,Dcondo Tann Charan,13.7717325,100.4594002
316,De Lapis Charan 81,13.7920492,100.5036955
317,DEN Vibhavadi,13.8907905,100.5862783
318,Denim Jatujak,13.7974943,100.557043
319,Deves Mansion,13.7667514,100.5040333
320,Dhennakorn Residence,13.7054681,100.3905495
321,Diamond Ratchada,13.7746668,100.5739626
322,Diamond Ratchada Cool House,13.7754726,100.5745254
323,Diamond Sukhumvit,13.7082704,100.5995125
324,Diamond Tower,13.7248823,100.529356
325,DLV Thonglor 20,13.7387665,100.5870911
326,D'Memoria,13.7783022,100.5484479
327,Dolce Lasalle,13.664737,100.6067904
328,Dolce Udomsuk,13.6760319,100.61231
329,Domus,13.73330095,100.5618799
330,Double U,13.8183257,100.5916823
331,Downtown Forty Nine,13.740178,100.5780646
332,Dynasty Complex,13.7920205,100.6082499
333,Ease Rama 2,13.6701924,100.4368478
334,Eastwood Park,13.7068716,100.6234249
335,Edge Sukhumvit 23,13.73658459,100.5633504
336,Eight Thonglor Residence,13.7304859,100.5819396
337,Elements Srinakarin,13.6962337,100.6453272
338,Elephant Tower,13.8254276,100.5684534
339,Elio Del Nest Udomsuk,13.6787801,100.6160598
340,Elio Del Moss Phaholyothin 34,13.8389547,100.5825219
341,Elio Del Ray,13.6847162,100.604285
342,Elio Sathorn - Wutthakat,13.7154113,100.4648064
343,Emerald Residence Ratchada,13.775027,100.5716026
344,Empire House,13.7295926,100.5911114
345,Episode Phahol - Sapanmai,13.8901022,100.6072222
346,Equinox,13.8091851,100.5590117
347,Esta Bliss,13.8121648,100.7150677
348,Esta Phahol - Sapanmai,13.88951867,100.6066077
349,Evergreen View Tower,13.6623817,100.650054
350,Executive Bangna,13.6762088,100.6432642
351,Fair Tower,13.70549009,100.5969618
352,Fairview Tower,13.7319285,100.5626128
353,Fak Khao Pode,13.7572581,100.6388838
354,Family Park,13.7941723,100.5885081
355,Family Town,13.7917227,100.5592344
356,Feel Condo Pinklao - Charan 59,13.7824559,100.4875888
357,Felic Ladprao - Wanghin 79,13.8235215,100.5880361
358,Ficus Lane,13.713931,100.5894229
359,Fifty Fifth Tower,13.7258487,100.5802906
360,Flawless Sathorn Residence,13.7177573,100.524477
361,Flora Condo Ville,13.8691405,100.5564326
362,Focus Condominium,13.8198176,100.5957805
363,Focus on Saladaeng,13.7267494,100.5371754
364,Focus Ploenchit,13.7396923,100.5517141
365,Formosa Ladprao 7,13.8103711,100.5674706
366,Fortune Condo Town,13.700724,100.5361317
367,Four Seasons Private Residences,13.7120933,100.5109961
368,Four Street Mansion,13.8200353,100.5688222
369,Four Wings Residence,13.7542622,100.6473491
370,Fragrant 71,13.7197761,100.5978403
371,Free Island Ladprao 93,13.7806502,100.6226582
372,Fresh Condominium,13.8126836,100.5252523
373,Fuse Chan - Sathorn,13.7061192,100.5305541
374,Fuse Miti sutthisan - ratchada,13.7892472,100.5640014
375,Fuse Mobius Ramkhamhaeng Station,13.7456482,100.6019394
376,Fuse Sathorn - Taksin,13.7204667,100.4969842
377,Fuse Sense' Bangkae,13.7106888,100.3963748
378,FYNN Aree,13.7778609,100.5402359
379,FYNN Asoke,13.7355892,100.5569706
380,FYNN Sukhumvit 31,13.7415723,100.5669196
381,G Style Condominium,13.7766346,100.581666
382,Garden Asoke - Rama 9,13.7504675,100.5747844
383,Garden Court,13.6745656,100.5125239
384,Grand Condominium Wutthakat 57,13.7006216,100.4680173
385,Grand Diamond Pratunam,13.74993738,100.5384084
386,Grand Langsuan,13.7395551,100.5427197
387,Grand Palace,13.7667154,100.6237819
388,Grand Park Town,13.7724631,100.5961686
389,Grand Park View Asoke,13.7435033,100.5620558
390,Grand Ville House 1,13.7275149,100.5682857
391,Grand Ville House 2,13.7402122,100.5590881
392,Green Peace Mansion,13.7926084,100.5396457
393,Green Point Silom,13.7282565,100.5291755
394,Green Ville Condo @ Sukhumvit 101,13.6908863,100.6144917
395,GROOVE VIBES LADPRAO 18,13.8027507,100.5699937
396,H Sukhumvit 43,13.732918,100.5740218
397,H2 Condominium,13.86454775,100.6170813
398,Hallmark Ladprao-Chokchai 4,13.7957022,100.6000114
399,Hampton Place,13.7643385,100.6275845
400,Hampton Thonglor 10,13.7322319,100.5836252
401,Hansar Rajdamri,13.73988488,100.5406032
402,Happy Condo Ladprao 101,13.7880878,100.6274462
403,Happy Condo Laksi - Donmuang,13.92636931,100.5837859
404,Happy Condo Ratchada 18,13.7837733,100.5860829
405,Harmony Living Sukhumvit 15,13.7461666,100.5589135
406,Hasu Haus,13.7142404,100.6022808
407,Haus 23 Ratchada - Ladprao,13.8051257,100.5759341
408,Haven Luxe,13.7880754,100.5535852
409,Heritage Condominium,13.7386868,100.5558062
410,HI Ladprao 130,13.7666574,100.6327333
411,Hive Sathorn,13.7216207,100.5027983
412,Hive Sukhumvit 65,13.7204786,100.5881175
413,Hive Taksin,13.7218707,100.4965179
414,Hope and Guy Condo Town,13.8167803,100.567734
415,HQ by Sansiri,13.7297644,100.5814008
416,Hua Mark Condominium,13.7612941,100.6227877
417,HUE Sukhumvit,13.6890689,100.6086332
418,Humble Living @ Suppalerk,13.7913166,100.5814952
419,Hyde Heritage Thonglor,13.7223588,100.5818933
420,Hyde Sukhumvit 11,13.7436341,100.5564595
421,Hyde Sukhumvit 13,13.7404403,100.5572732
422,I - House Laguna Garden,13.75002865,100.5786896
423,I - Zen Ekamai - Ramindra,13.812944,100.6103948
424,I CONDO Kaset,13.8410359,100.5892495
425,I CONDO Petchkasem 39,13.7096052,100.4296315
426,I CONDO Sukhapiban 2,13.782413,100.671742
427,I CONDO Sukhumvit 103,13.6756714,100.6379626
428,I CONDO Sukhumvit 105,13.6595056,100.6310112
429,i-biza residence,13.752027,100.5794917
430,Icon II,13.7379191,100.5838174
431,Icon III,13.7369988,100.5846197
432,iCondo Green Space Sukhumvit 77,13.7219316,100.726456
433,iCondo Serithai Green Space,13.7763981,100.6613918
434,Ideal 24,13.7236166,100.567095
435,Ideo Blucove Sathorn,13.7220498,100.4958744
436,Ideo Blucove Sukhumvit,13.6785478,100.6085477
437,Ideo Charan 70-Riverview,13.7892822,100.5033079
438,Ideo Chula Samyan,13.7316139,100.5255433
439,Ideo Ladprao 17,13.8068797,100.5727637
440,Ideo Ladprao 5,13.810814,100.5657315
441,Ideo Mix Phaholyothin,13.7950293,100.5504801
442,Ideo Mix Sukhumvit 103,13.6789052,100.6112738
443,Ideo Mobi Asoke,13.7479768,100.5659566
444,Ideo Mobi Bangsue Grand Interchange,13.8064426,100.5329214
445,Ideo Mobi Charan Interchange,13.7623251,100.471948
446,Ideo Mobi Rama 9,13.7558338,100.5658335
447,Ideo Mobi Rangnam,13.7595365,100.5416344
448,Ideo Mobi Sathorn,13.7202929,100.5026936
449,Ideo Mobi Sukhumvit,13.7046537,100.6020189
450,IDEO Mobi Sukhumvit 66,13.6816016,100.6099522
451,Ideo Mobi Sukhumvit East Point,13.6649125,100.6036429
452,Ideo Mobi Sukhumvit Eastgate,13.6654941,100.6041974
453,Ideo Mobi Wongsawang - Interchange,13.8188762,100.5317985
454,Ideo Morph 38,13.72082028,100.5784127
455,IDEO New Rama 9,13.7488085,100.6062993
456,IDEO O2,13.6723197,100.6034762
457,Ideo Phaholyothin Chatujak,13.7959119,100.5502144
458,Ideo Q Chula - Samyan,13.7332688,100.5263905
459,Ideo Q Phayathai,13.7556979,100.532769
460,Ideo Q Ratchathewi,13.7529587,100.5338984
461,Ideo Q Siam - Ratchathewi,13.7524146,100.5349697
462,Ideo Q Victory,13.7622403,100.5370277
463,Ideo Rama 9 - Asoke,13.754747,100.5673335
464,Ideo Ratchada - Huaykwang,13.7784252,100.5745312
465,Ideo Ratchada-Sutthisan,13.7898989,100.5700487
466,Ideo Sathorn - Taksin,13.7205143,100.5021871
467,Ideo Sathorn - Thaphra,13.7173259,100.4823377
468,Ideo Sathorn - Wongwian YaiIdeo Sathorn - Wongwian Yai,13.7220179,100.4973845
469,Ideo Sukhumvit 93,13.6985445,100.6047769
470,Ideo Sukhumvit Rama 4,13.7131216,100.5898864
471,Ideo Thaphra Interchange,13.72834212,100.4759639
472,Ideo Verve Ratchaprarop,13.7543441,100.5424742
473,Ideo Verve Sukhumvit,13.70621321,100.6016963
474,Ideo Wutthakat,13.71526799,100.4673477
475,IKON Sukhumvit 77,13.71020755,100.6081519
476,I'm Fine Bangna,13.6622815,100.6363648
477,Metro sky prachachuen,13.8222739,100.5367832
478,Inspire Place ABAC - Rama IX,13.75441268,100.6264235
479,Inter Lux Residence,13.7471051,100.5537084
480,Inter Tower,13.7455929,100.5572759
481,Intro Phaholyothin - Pradipat,13.79229302,100.5392389
482,IRIS Avenue Onnuch - Suvarnabhumi,13.7217525,100.7184573
483,Issara Collection SathornIssara Collection Sathorn,13.7092685,100.5390683
484,ISSI Condo Suksawat,13.68192461,100.4936334
485,ITF Silom Palace,13.72749536,100.5281555
486,IVORY Ratchada-Ladprao,13.8157198,100.5781808
487,Ivy Ampio,13.7630949,100.568323
488,Ivy Ratchada,13.791059,100.5758913
489,Ivy Residence Pinklao,13.7702346,100.4848219
490,Ivy River,13.6882561,100.4927561
491,Ivy Sathorn 10,13.7238029,100.5267045
492,Ivy Thonglor,13.7371565,100.5835084
493,J Condo Sathorn - Kallaprapruk,13.6863561,100.4203574
494,J.C. Tower,13.7439198,100.5814752
495,J.W. Boulevard Srivara,13.7709427,100.6082621
496,Jaran Garden Condominium,13.7961176,100.5772431
497,JRY RAMA9 CONDOMINIUM,13.7616953,100.5916121
498,Juldis River Mansion,13.7659609,100.4964488
499,JW CONDO @DONMUANG,13.9241556,100.5980452
500,JW Station @Ramintra,13.81213,100.7111951
501,Kacha Puri Condominium,13.7959641,100.4507843
502,Kallista Mansion,13.74789196,100.5568937
503,KALM Penthouse,13.75034012,100.5873031
504,KAWA HAUS,13.7148054,100.6051494
505,Kensington Kaset Campus,13.85647829,100.5769729
506,Kensington Phahol - Kaset,13.8458932,100.5807744
507,Kensington Place Chaengwattana,13.89075421,100.5619765
508,Kes Ratchada Condominium,13.76653425,100.5627671
509,KEYNE BY SANSIRI,13.72481749,100.5769664
510,KHUN by YOO inspired by Starck,13.73279631,100.5827273
511,Kiarti Thanee City Mansion,13.74472081,100.5678789
512,Kirasup Mansion Ville,13.834172,100.6619946
513,Klass Condo Langsuan,13.7419427,100.5442615
514,Klass Condo Siam,13.7482069,100.5286121
515,Klass Condo Silom,13.72568333,100.5316922
516,Klass Sarasin - Rajdamri,13.73499107,100.5408853
517,KNIGHTSBRIDGE COLLAGE RAMKHAMHAENG,13.76160948,100.6401859
518,Knightsbridge Kaset Society,13.83713641,100.5746527
519,Knightsbridge Phaholyothin - Interchange,13.87917787,100.5979953
520,Knightsbridge Prime Onnut,13.70990689,100.6023383
521,KnightsBridge Prime Ratchayothin,13.82503558,100.5661215
522,Knightsbridge Prime Sathorn,13.71698136,100.5335813
523,Knightsbridge Skycity Saphanmai,13.8873344,100.6045608
524,KnightsBridge Space Ratchayothin,13.82529719,100.5665423
525,KnightsBridge Space Rama9,13.75583476,100.5624428
526,Kraam Sukhumvit 26,13.72608377,100.5700836
527,Kritsakon Condo VIlle,13.78359897,100.4817506
528,Kuruthanee Privacy,13.78780821,100.4882507
529,L Loft Ratchada 19,13.80057502,100.5737544
530,L Style Condo,13.77509494,100.5818971
531,La citta,13.7313699,100.5837547
532,La Citta Delre Thonglor 16,13.7337874,100.5851975
533,La Maison Phaholyothin 24,13.8198614,100.5683407
534,La Maison Sukhumvit 22,13.7266459,100.5639289
535,La Salle Park,13.66038584,100.6068415
536,La Vie En Rose Place,13.7218588,100.5760629
537,Lake Green,13.7342633,100.5559429
538,Landmark @MRTA Station,13.75596002,100.5838981
539,Langsuan Ville,13.73983367,100.5427634
540,Lapa Place,13.71188189,100.5467705
541,Las Colinas,13.7375078,100.5619872
542,LAVIQ Sukhumvit 57,13.72449985,100.5807604
543,Le Celeste Rama 9 - Srinakarin,13.74818967,100.6456059
544,Le Champs,13.77967237,100.6193705
545,Le Cote Sukhumvit 14,13.73622313,100.5602042
546,Le Cote Thonglor 8,13.73120181,100.582687
547,Le Jardin young place,13.8333726,100.569626
548,Le Monaco Residence Ari,13.78739387,100.5440713
549,Le Nice Ekamai,13.72580039,100.5854453
550,Le Premier 1,13.7376234,100.5626362
551,Le Premier 2,13.72503446,100.5822283
552,Le Raffine Jambu Dvipa Sukhumvit 39,13.73325924,100.5705158
553,Le Raffine Jambunuda Sukhumvit 31,13.7341244,100.5659655
554,Le Raffine Sukhumvit 24,13.7259656,100.5671581
555,Le Rich @ Aree station,13.77910192,100.5411559
556,Le Rich Ratchada - Sutthisarn,13.78964367,100.571976
557,Le Rich Sathorn - Satupradit,13.6909013,100.5343886
558,Leticia Rama 9,13.76249302,100.591571
559,Levo Ladprao 18 Project 1,13.80517882,100.5698501
560,LIB Ladprao 20,13.8051404,100.5708969
561,LIB Ramkhamhaeng 43/1,13.76418886,100.6154185
562,Liberty Park,13.74164009,100.5649575
563,Liberty Park 2,13.74700642,100.5559866
564,Library Houze Charan 13,13.7404215,100.4628218
565,Life @ BTS Tha - Phra,13.71781006,100.4769127
566,Life @ Ladprao 18,13.80715064,100.5702427
567,Life @ Phahon - Ari,13.78935023,100.5475626
568,Life @ Phahon 18,13.79654877,100.552785
569,Life @ Ratchada,13.7829655,100.5745881
570,Life @ Ratchada - Huay Kwang,13.77918176,100.5744003
571,Life @ Ratchada - Suthisan,13.7909735,100.5749007
572,Life @ Sathorn 10,13.72258032,100.5271053
573,Life @ Sukhumvit 65,13.71729503,100.5891947
574,Life Asoke,13.7505301,100.5649605
575,Life Ladprao,13.8171177,100.5635653
576,Life Ladprao Valley,13.8158842,100.5629623
577,Life One Wireless,13.7479803,100.549175
578,Life Pinklao,13.77614571,100.4857188
579,Life Sathorn Sierra,13.71719213,100.4790878
580,Life Sukhumvit 48,13.71131258,100.5947519
581,Life Sukhumvit 62,13.69519531,100.6035194
582,LIV@49,13.72862553,100.5753193
583,Living Nest Ramkhamhaeng,13.7634037,100.6404556
584,Living Place Ladprao 138,13.7693297,100.6380738
585,LLOYD Soonvijai-Thonglor,13.747432,100.5817086
586,LPN Tower,13.70402688,100.5443492
587,Lucas Garden - Family House,13.80010581,100.6063572
588,Lugano Ladprao 18,13.8032802,100.5695871
589,Lumpini Center Happyland,13.77429895,100.6414142
590,Lumpini Center Ladprao 111,13.7714587,100.6370599
591,Lumpini Center Nawamin,13.7781487,100.643104
592,Lumpini Center Sukhumvit 77,13.71307097,100.605086
593,Lumpini Condo Town Bangkhae,13.70695792,100.4216241
594,Lumpini Condo Town Bodindecha - Ramkhamhaeng,13.76686888,100.6162207
595,Lumpini Condo Town Ramindra - Latplakhao,13.86285,100.6132308
596,Lumpini Condo Town Ramintra - Laksi,13.87288948,100.6038467
597,Lumpini Condo Town Ramintra - Nawamin,13.8366153,100.6627672
598,Lumpini Condotown Romklao - Suvarnabhumi,13.73698202,100.7432309
599,Lumpini Park Nawamin - Sriburapha,13.79419738,100.6534842
600,LUMPINI PARK PHAHON 32,13.8328796,100.5723097
601,Lumpini Park Phetkasem 98,13.7108213,100.3829924
602,Lumpini Park Pinklao,13.78073998,100.4759545
603,Lumpini Park Rama 9 - Ratchada,13.75213084,100.5764372
604,Lumpini Park Riverside Rama 3,13.67858451,100.5275501
605,Lumpini Park Vibhavadi - Chatuchak,13.79739964,100.5581695
606,Lumpini Park View,13.7248999,100.546431
607,Lumpini Place Borom Ratchachonni Pinklao,13.7844329,100.4611193
608,Lumpini Place Narathiwas - Chaopraya,13.68348186,100.5486378
609,Lumpini Place Narathiwas 24,13.70061843,100.534868
610,Lumpini Place Narathiwasratchanakarin,13.69595271,100.544923
611,Lumpini Place Phahol - Saphankhwai,13.79177981,100.5438072
612,Lumpini Place Pinklao 1,13.7750762,100.481128
613,Lumpini Place Pinklao 2,13.78014091,100.4744636
614,Lumpini Place Rama 4 - Kluaynamthai,13.71225183,100.5827127
615,Lumpini Place Rama III - Riverview,13.6904149,100.5049008
616,Lumpini Place Rama IV - Sathorn,13.71841954,100.5500015
617,Lumpini Place Rama IX - Ratchada,13.75701039,100.5714057
618,Lumpini Place Rama VIII,13.77348049,100.4924313
619,Lumpini Place Ramindra - Laksi,13.87170642,100.6028221
620,Lumpini Place Ratchada - Thapra,13.70888362,100.481544
621,Lumpini Place Ratchada-Sathu,13.69707939,100.5327669
622,Lumpini Place Ratchayothin,13.83060527,100.5716076
623,Lumpini Place Sathorn,13.711058,100.5348865
624,Lumpini Place Srinakarin,13.73658406,100.6426809
625,Lumpini Place Suanplu - Sathorn,13.7206171,100.5406493
626,Lumpini Place Suksawat - Rama 2,13.6914312,100.4809456
627,Lumpini Place Taopoon-Interchange,13.8079967,100.5308143
628,Lumpini Place Water Cliff,13.7000378,100.5382697
629,Lumpini Selected Sutthisan - Saphankwai,13.7887042,100.5537126
630,Lumpini Suite Dindaeng - Ratchaprarop,13.7631804,100.5464742
631,Lumpini Suite Phetchaburi - Makkasan,13.7500544,100.5555539
632,Lumpini Suite Pinklao,13.7730614,100.4828112
633,Lumpini Suite Rama Vlll,13.772941,100.4918529
634,Lumpini Suite Ratchada - Rama III,13.69951867,100.5391916
635,Lumpini Suite Sukhumvit 41,13.730008,100.5720996
636,Lumpini Ville Bangkae,13.7108026,100.4205091
637,Lumpini Ville Cultural Center,13.7733253,100.5840831
638,Lumpini Ville Lasalle - Barring,13.6621234,100.6239778
639,Lumpini Ville Latphrao - Chokchai 4,13.7958269,100.5929158
640,Lumpini Ville On Nut - Phatthanakan,13.71760345,100.6544968
641,Lumpini Ville On Nut Latkrabang 2,13.7211433,100.7038376
642,Lumpini Ville Onnut - Ladkrabang,13.7216546,100.7152376
643,Lumpini Ville Onnut 46,13.7070139,100.6337543
644,Lumpini Ville Phahol - Suthisarn,13.7883758,100.5514336
645,Lumpini Ville Phatthanakan - New Phetchaburi,13.7362115,100.6168855
646,Lumpini Ville Phra Mae Maree - Sathorn,13.705083,100.525012
647,Lumpini Ville Prachachuen - Phongphet 2,13.8458414,100.542083
648,Lumpini Ville Ramintra - Laksi,13.8721997,100.6037097
649,Lumpini Ville Ramkhamhaeng 26,13.7534861,100.6310129
650,Lumpini Ville Ramkhamhaeng 44,13.7618974,100.6409042
651,Lumpini Ville Ramkhamhaeng 60/2,13.7629161,100.6494983
652,Lumpini Ville Ratchaphruek - Bang Waek,13.6868584,100.492276
653,Lumpini Ville Sukhumvit 77,13.71093907,100.6076102
654,Lumpini Ville Sukhumvit 77 2,13.7121713,100.6071723
655,M Jatujak,13.797263,100.5517915
656,M Ladprao,13.8163519,100.5623887
657,M Phayathai,13.760893,100.536221
658,M Silom,13.7271421,100.527213
659,M Thonglor 10,13.73097831,100.5870285
660,Ma Maison,13.7720742,100.6151828
661,Maestro 01 Sathorn-Yenakat,13.7177325,100.5478851
662,Maestro 02 Ruamrudee,13.7358309,100.5506528
663,Maestro 03 Ratchada-Rama 9,13.7630961,100.5647644
664,Maestro 07 Victory Monument,13.76396,100.5399989
665,Maestro 12,13.7537907,100.5296216
666,Maestro 14 Siam - Ratchathewi,13.7508744,100.529296
667,Maestro 19 Ratchada 19 Vipha,13.7968367,100.5696123
668,Maestro 39,13.7398558,100.572639
669,Magnolias Ratchadamri Boulevard,13.7425631,100.540769
670,Magnolias Waterfront Residences,13.7273052,100.5105012
671,Mahogany Tower,13.7225843,100.5665936
672,Maison De Siam,13.7266881,100.5622727
673,Maison De Ville,13.7920718,100.5477278
674,Maison Garden Chaeng Watthana,13.8980634,100.5773843
675,MANHATTAN CHIDLOM,13.7493923,100.5434392
676,Mano Tower,13.7438536,100.5723045
677,MARQUE Sukhumvit,13.73023085,100.5710688
678,MARU Ekkamai 2,13.724528,100.5852574
679,Master View Executive Place,13.7128323,100.4993969
680,Max Condominium Vibhavadi,13.8598328,100.5690766
681,Maxxi Condo,13.83703598,100.5839169
682,Mayfair Place Sukhumvit 50,13.70502126,100.5949673
683,Mayfair Place Sukhumvit 64,13.6870645,100.6059733
684,Mazarine Ratchayothin,13.8288684,100.5699921
685,Menam Residences,13.7064266,100.5058885
686,MeStyle @ Sukhumvit - Bangna,13.671463,100.6355819
687,Metha Place @ Ratchada,13.7782942,100.586556
688,Metris Rama 9-Ramkhamhaeng,13.7475742,100.6067533
689,Metro Luxe Kaset,13.84165209,100.5873763
690,Metro Luxe Paholyothin - Sutthisan,13.7874616,100.5580701
691,Metro Luxe Rama 4,13.71193273,100.5802581
692,Metro Luxe Ratchada,13.7842112,100.5726318
693,Metro Park Sathorn,13.71232969,100.4513946
694,Metro Sky Ratchada,13.7841713,100.5712747
695,Metro Sky Wutthakat,13.71571751,100.4728192
696,Metroluxe Rose Gold Phahol-Sutthisan,13.7867034,100.5576526
697,Millennium Residence,13.72954589,100.5626992
698,Mirage Sukhumvit 27,13.73517981,100.5645676
699,Miti Chiva Kaset Station,13.8406335,100.5778489
700,MITI Condo,13.82839251,100.5920454
701,MODE Sukhumvit 61,13.72264574,100.5828598
702,Modern Condo Bangplad-Charan79,13.79186561,100.501277
703,Modern Home Tower The Exclusive,13.6970525,100.5405208
704,MODIZ LADPRAO 18,13.8060932,100.5700721
705,Modiz Ratchada 32,13.814848,100.5763659
706,Modiz Station,13.8819474,100.6001251
707,Modiz Sukhumvit 50,13.70223858,100.5896524
708,Moniiq Sukhumvit 64,13.6887312,100.6024781
709,Monte Rama 9,13.75048226,100.6126098
710,Monterey Place,13.723687,100.5618353
711,Moon Tower,13.72570381,100.5818933
712,Mori Haus,13.71510633,100.6029566
713,Morning Suite,13.93410805,100.6275546
714,Motif Condo,13.7267046,100.4875522
715,Motive Condominium Chaengwattana,13.889401,100.5754419
716,Movenpick Residences Ekkamai Bangkok,13.7392497,100.588918
717,Mulberry Grove Sukhumvit,13.71795771,100.588106
718,MUNIQ Langsuan,13.735078,100.5442236
719,MUNIQ Sukhumvit 23,13.7378664,100.5625844
720,My Condo Ladprao 27,13.80541165,100.5786241
721,My Condo Pinklao,13.77590247,100.4830994
722,My Condo Sathorn - Taksin,13.7226259,100.49618
723,My Condo Sukhumvit 103,13.6788327,100.623895
724,My Condo Sukhumvit 52,13.70377355,100.6001125
725,My Condo Sukhumvit 81,13.70530642,100.6038503
726,My Resort @ River,13.78882367,100.5055958
727,My Resort Bangkok,13.7482389,100.5666133
728,My Story Ladprao 71,13.8156625,100.6106341
729,N.T. House,13.7592543,100.5859507
730,Na Reva Charoennakhon,13.70687673,100.4907922
731,Na Vara Residence,13.74200269,100.5445165
732,Na Veera Phahol - Ari,13.78627702,100.5490534
733,Nara 9 by Eastern Star,13.7179413,100.5331621
734,Narathorn Place,13.7201384,100.5324819
735,Navin Court,13.73689373,100.5501096
736,New York Condo Ramindra 97,13.8280088,100.677179
737,Newton Tower,13.7386066,100.5550358
738,Niche id Phetkasem-Bangkae,13.7050396,100.4221358
739,Niche id Rama 2 - Daokhanong,13.67717526,100.4689926
740,Niche Mono Charoen Nakorn,13.696836,100.4858348
741,Niche Mono Itsaraphap,13.7396496,100.4838499
742,Niche Mono Peak Bangna,13.66407984,100.6370542
743,Niche Mono Rama 9,13.7629936,100.5939796
744,Niche Mono Ramkhamhaeng,13.75949466,100.6374615
745,Niche Pride Taopoon - Interchange,13.80575843,100.5315691
746,Nimit Langsuan,13.7349822,100.5421791
747,Niran City Bangkhae,13.69611739,100.4127709
748,Niran Condominium Donmuang,13.91442681,100.5880366
749,Nivati Thonglor 23,13.73900093,100.5804488
750,Noble 09 Ruamrudee,13.7410369,100.5497188
751,Noble Above Wireless-Ruamrudee,13.734639,100.5506436
752,Noble Ambience Sarasin,13.7353021,100.5403038
753,Noble Around 33,13.7359378,100.5676331
754,Noble Around Ari,13.77760794,100.5443441
755,Noble BE 33,13.7354264,100.5676846
756,Noble BE19,13.7423617,100.5596477
757,Noble Cube,13.73418193,100.6170083
758,Noble Form Thonglor,13.73541571,100.5840166
759,Noble House Phayathai,13.7587689,100.5352961
760,Noble Lite,13.7788857,100.5425603
761,Noble Ora,13.7363335,100.5845614
762,Noble Ploenchit,13.7440357,100.5486963
763,Noble Recole,13.7421466,100.5601554
764,Noble ReD,13.780289,100.5436543
765,Noble Refine,13.7282634,100.5711817
766,Noble Reflex,13.7819541,100.5433556
767,Noble Reform,13.7813444,100.5446239
768,Noble Remix,13.7245667,100.5772601
769,Noble Reveal,13.7218845,100.5848259
770,Noble Revent,13.757179,100.535399
771,Noble Revo Silom,13.7195089,100.5194916
772,Noble Revolve Ratchada,13.76345162,100.5693043
773,Noble Solo,13.7401414,100.5850628
774,NOBLE STATE 39,13.7340461,100.5710531
775,Notting Hill Jatujak - Interchange,13.7971852,100.552077
776,Notting Hill Phahol - Kaset,13.8598541,100.5871471
777,Notting Hill The Exclusive CharoenKrung,13.70316553,100.5055311
778,Notting Hill Sukhumvit 105,13.66199964,100.6070381
779,NS Tower Central City Bangna,13.6729642,100.6343485
780,NUE District R9,13.7563713,100.5676359
781,NUE Evo Ari,13.7782283,100.5421782
782,Nue Noble Chaengwattana,13.8959182,100.5490221
783,NUE NOBLE SRINAKARIN-LASALLE,13.65352573,100.6431845
784,Nusasiri Grand,13.7192973,100.5845557
785,Nye by Sansiri,13.7218367,100.49796
786,O2 Hip,13.7450639,100.5493803
787,OKA HAUS Sukhumvit 36,13.71733331,100.5744193
788,Omni Tower Sukhumvit Nana,13.73759215,100.5534942
789,One 9 Five Asoke - Rama 9,13.75691219,100.568322
790,Onpa Tower,13.78895922,100.4857378
791,Onyx Phaholyothin,13.7916432,100.548411
792,Oriental Residence,13.73821631,100.5462482
793,Oriental Towers,13.7302424,100.5888821
794,Origin Plug & Play Ramkhamhaeng Triple Station,13.7643056,100.6510556
795,Origins Rama 2,13.6541566,100.4238971
796,P. Pinklao Condominium 2,13.76844,100.452113
797,P. Thana Tower,13.7933212,100.5921679
798,P.P.H. Condo,13.9174024,100.5810227
799,Pabhada Silom,13.722601,100.5237352
800,Pano Ville,13.8000426,100.5735574
801,Parc Exo Kaset - Navamintra,13.81218617,100.6667354
802,Park Court Sukhumvit 77,13.71427517,100.6032888
803,PARK ORIGIN PHAYATHAI,13.73492872,100.5217744
804,Park Origin Phromphong,13.7254746,100.5656771
805,Park Origin Ratchathewi,13.7547493,100.5290655
806,Park Origin Thonglor,13.73224507,100.5847989
807,Park Pavillion,13.7837482,100.5417793
808,Park View Viphavadi,13.891438,100.584211
809,Park View Viphavadi 4,13.8898508,100.5836221
810,Park Village Onnut - Suvarnabhumi,13.72172979,100.6811494
811,Parque Phutthabucha 48,13.6470176,100.4947357
812,Patchara Place,13.7388324,100.5663058
813,Pathumwan Resort,13.7546125,100.5344977
814,Pattanakarn Life Complex,13.738607,100.6159784
815,Pause Sukhumvit 103,13.680537,100.6126005
816,Pearl Residences Sukhumvit 24,13.727756,100.566701
817,Pela Wutthakat,13.71302359,100.4718968
818,Petch 9 Tower,13.7534694,100.5341743
819,PG Rama IX,13.75521739,100.5692228
820,Phahol Metro,13.78646807,100.5482606
821,Phasuk Place,13.77779537,100.5384643
822,Phayathai Place,13.75859027,100.5339805
823,Phyll Phahol 34,13.8363901,100.5742802
824,Piamrak Residence,13.7038172,100.4807184
825,Piboon Condoville,13.8151438,100.5230925
826,Pikul Place,13.7193185,100.5276834
827,Pinklao Condominium,13.7815625,100.4701142
828,Pinklao Pavilion,13.7842858,100.4761998
829,Pinklao River Park View,13.7816354,100.4683046
830,Pinnapa On Nut,13.6958081,100.6404965
831,PITI Sukhumvit 101,13.6929511,100.6075709
832,Plum Condo Bangkae,13.7102774,100.396048
833,Plum Condo Chaengwattana Station,13.8793215,100.5864429
834,Plum Condo Chokchai 4,13.8130257,100.5961437
835,Plum Condo Extra Rama 2,13.6721469,100.4591642
836,Plum Condo Ladprao 101,13.7890639,100.6277884
837,Plum Condo Nawamin,13.8237755,100.6586159
838,Plum Condo Pinklao Station,13.7722806,100.483368
839,Plum Condo Ram 60 Interchange,13.7611172,100.6490497
840,Plum Condo Ramkhamhaeng Station,13.7433776,100.603193
841,Plum Condo Saphanmai Station,13.8947816,100.6131403
842,Plus 38 Hip,13.7212784,100.5776818
843,Plus 67,13.7185497,100.590496
844,PM Riverside,13.67435363,100.5464281
845,Polo Park,13.7322777,100.5471847
846,Prasanmit Condominium,13.7369968,100.5629289
847,Prasertsuk Place,13.7969871,100.5645645
848,Prayapirom Chateau Riverboat,13.70662841,100.4906188
849,Preen by Sansiri,13.7358758,100.5488246
850,Premier Condominium,13.7274664,100.568901
851,Premier Place,13.7430619,100.6202738
852,Premio Prime Boutique,13.8320953,100.6138356
853,Premio by Premium Place,13.8319348,100.6155295
854,Premsiri Boutique Park,13.8396747,100.5817804
855,President Park Sukhumvit 24,13.72205704,100.5655165
856,President Place,13.745757,100.5416299
857,Prestige Towers,13.74075073,100.5647941
858,Prima Srinakarin,13.7152002,100.6421011
859,Prime I - Zen Condo Ladprao 71,13.79960931,100.6059067
860,Prime Mansion One,13.74478609,100.5669542
861,Prime Mansion Promsri,13.7370633,100.5752098
862,Prime Mansion Sukhumvit 31,13.7393942,100.5673996
863,Prive by Sansiri,13.7348607,100.5469127
864,Prom Phaholyothin 2,13.7773302,100.5466552
865,Prueksa Thani 3 Condotel,13.72151117,100.6820607
866,Pyne by Sansiri,13.7519248,100.5310182
867,Q 1 Sukhumvit,13.74007796,100.5549557
868,Q Asoke,13.7484022,100.562828
869,Q Chidlom-Phetchaburi,13.7491299,100.5438171
870,Q House Condo Sukhumvit 79,13.7075988,100.6007253
871,Q House Sathorn,13.7247563,100.5416093
872,Q Langsuan,13.7391187,100.5425999
873,Q Prasarnmit,13.7435932,100.5672628
874,Quad Sathon,13.71750592,100.5305635
875,Quad Silom,13.72371424,100.5299795
876,Quattro by Sansiri,13.72753516,100.5816663
877,Quinn Condo Ratchada,13.786642,100.5732439
878,Quinn Sukhumvit 101,13.6899795,100.6091287
879,Quintara Arte Sukhumvit 52,13.70286442,100.5991604
880,Quintara Kynett Ratchada 12,13.77445598,100.5745439
881,Quintara Treehaus Sukhumvit 42,13.71562704,100.5862631
882,Raintree Village Apartment,13.7329746,100.5723835
883,Rama VI Mansion,13.80624111,100.5144763
884,Ramada Plaza Residence by Siamese Asset,13.70900063,100.5987788
885,Ratanakosin Island,13.75,100.5
886,Ratchada City 18,13.7835216,100.5851787
887,Ratchada Orchid,13.7867678,100.5783869
888,Ratchada Pavilion,13.8112371,100.5785355
889,Ratchathewi Tower,13.7535914,100.5325119
890,Rattanakosin View Mansion,13.76386576,100.4913426
891,REACH Phahon Yothin 52,13.8938046,100.6117618
892,Reference Sathorn - Wongwianyai,13.71932446,100.4941914
893,Regent Home 1 Phaholyothin 67,13.88873082,100.5999379
894,Regent Home 10 Changwattana,13.8770337,100.5953767
895,Regent Home 12 Latphrao 41,13.8023391,100.5871737
896,Regent Home 15 Changwattana,13.7014654,100.6119866
897,Regent Home 16 Phaholyotin 67,13.8872129,100.5999139
898,Regent home 18 changwattana - laksi,13.8775452,100.5947432
899,Regent Home 19 Sukhumvit 93,13.7002052,100.6084661
900,Regent Home 2,13.8879374,100.6010733
901,Regent Home 20 Prachachuen 16,13.8161865,100.5348249
902,Regent Home 22 Sukhumvit 85,13.7048718,100.6069921
903,Regent Home 3,13.8799845,100.5974977
904,Regent Home 4,13.7052651,100.609139
905,Regent Home 5 Ratchada 19,13.8002947,100.5710949
906,Regent Home 6 Prachacheun,13.8253805,100.5445453
907,Regent Home 7 Sukhumvit,13.67559462,100.6040429
908,Regent Home 8 Phaholyothin 67/1,13.8880566,100.6007002
909,Regent Home 9 Sukhumvit 64,13.68944489,100.602436
910,Regent home bangna,13.67155217,100.6021111
911,Regent Home Bangson,13.81903099,100.5289532
912,Regent Home Sukhumvit 81,13.7063243,100.6081263
913,Regent Home Sukhumvit 97/1,13.699373,100.6143137
914,Regent on the Park 1,13.7260647,100.5691871
915,Regent on the Park 2,13.726829,100.5833483
916,Regent on the Park 3,13.7423026,100.573411
917,Regent Orchid Sukhumvit 101,13.6906316,100.6112007
918,Regent Orchid Talad Plu,13.7166901,100.4761013
919,Regent Ratchada Tower,13.7846539,100.5698664
920,Regent Royal Place 1,13.74114399,100.5413929
921,Regent Royal Place 2,13.7396346,100.5416618
922,Regent Srinakarin Tower,13.7303322,100.640112
923,Rende Sukhumvit 23,13.7390655,100.5641927
924,Renova Residence Chidlom,13.7455931,100.5494764
925,Residence 52,13.7023391,100.5990067
926,Resorta Yen - akat,13.7109114,100.548573
927,Resta Jangwattana 12,13.8941004,100.5640854
928,Rhythm Asoke,13.754429,100.5641084
929,Rhythm Asoke 2,13.7538438,100.5649592
930,RHYTHM Charoenkrung Pavillion,13.70932551,100.5118537
931,RHYTHM Ekkamai,13.7226875,100.5844375
932,RHYTHM Ekkamai Estate,13.7294518,100.5858116
933,Rhythm Phahol-Ari,13.7889576,100.5454391
934,Rhythm Rangnam,13.7608876,100.537104
935,Rhythm Ratchada,13.7987993,100.5761821
936,Rhythm Ratchada-Huai Khwang,13.778115,100.5744674
937,Rhythm Sathorn,13.7168334,100.5165439
938,Rhythm Sathorn - Narathiwas,13.7187931,100.5328196
939,Rhythm Sukhumvit,13.7065175,100.5995047
940,Rhythm Sukhumvit 36 - 38,13.7218702,100.576904
941,Rhythm Sukhumvit 42,13.7177547,100.5853457
942,Rhythm Sukhumvit 44/1,13.7151732,100.5908525
943,Rich Park 2 @Taopoon Interchange,13.8058548,100.5288509
944,Richmond Palace,13.7324739,100.5739689
945,Richpark @ Bangson Station,13.8228571,100.5326409
946,Rimtara Residence,13.6879262,100.5103654
947,Rin House,13.7421326,100.5715994
948,Rise Rama 9,13.7504325,100.5982617
949,River Heaven,13.7021108,100.5002311
950,Riverside Tower,13.687004,100.5160852
951,Royal Castle Pattanakarn,13.7244779,100.6228553
952,Royal Park,13.7829191,100.5481046
953,Royal Park 3 Ari - Paholyothin,13.7801463,100.5423145
954,Royal River Place,13.6735656,100.545521
955,Royce Private Residences,13.74076704,100.5662276
956,Ruamjai Heights,13.7471854,100.5589424
957,Rye Talat Phlu,13.7164883,100.4759065
958,S 1 Rama 9,13.7439857,100.6304383
959,S&S Sukhumvit,13.6837366,100.6146672
960,S.V. City Rama 3,13.67273516,100.5434521
961,S47 Sukhumvit,13.73128388,100.5743958
962,Saichol Mansion,13.7158998,100.507517
963,Sailom City Resort,13.7781436,100.5469284
964,Saitharn Condominium,13.7612349,100.5384569
965,Saladaeng One,13.72646358,100.5411839
966,Saladaeng Residences,13.72541369,100.5383206
967,Salintara,13.68730703,100.5108398
968,Sammakorn Condominium,13.767914,100.6814636
969,Sampoom Garden,13.72210107,100.5250498
970,Samran Mansion,13.7766431,100.5824475
971,Sapphire Luxurious Condominium Rama 3,13.6738338,100.5384178
972,Saranjai Mansion,13.73812806,100.5541172
973,Saranville @ Happy Land,13.77778328,100.6416177
974,Sari by Sansiri,13.6873226,100.6067177
975,Sarin Place,13.8301483,100.5645369
976,Sathorn Gardens,13.72275267,100.5388687
977,Sathorn Happy Land Tower,13.71672371,100.5296092
978,Sathorn Heritage,13.71622934,100.5313997
979,Sathorn House,13.72015797,100.5213558
980,Sathorn Park Place,13.72305847,100.5399137
981,Sathorn Plus - By The Garden,13.71577551,100.5470409
982,SAVVI Phahol - Ari,13.77846145,100.5464531
983,Sawasdee Bangkok,13.69813667,100.6396035
984,SCOPE Langsuan,13.7424786,100.5440328
985,Sense Phaholyothin,13.78919008,100.5522729
986,Sense Sukhumvit,13.6781227,100.6067176
987,Serene Place Sukhumvit 24,13.7265427,100.5674524
988,Serio Sukhumvit 50,13.70565838,100.5972966
989,Serrano Condominium Rama II,13.66525914,100.4325843
990,Si Phraya River View,13.73237451,100.5140251
991,Siam Condominium,13.75887373,100.5672102
992,Siam Penthouse 1,13.73727204,100.5561654
993,Siamese Exclusive Queens,13.72324953,100.561352
994,Siamese Exclusive Ratchada,13.80022274,100.5753062
995,Siamese Exclusive Sukhumvit 31,13.73827157,100.566134
996,Siamese Exclusive Sukhumvit 42,13.71674477,100.5850113
997,Siamese Gioia,13.74317342,100.571177
998,Siamese Nang Linchee,13.70041683,100.5445376
999,Siamese Ratchakru,13.77603307,100.5428543
1000,Siamese Sukhumvit 87,13.70053129,100.6039695
1001,Siamese Surawong,13.7300326,100.527984
1002,Siamese Thirty Nine,13.73917122,100.572749
1003,Silk Phaholyothin 9,13.78624332,100.5433661
1004,Silk Place,13.8786296,100.597996
1005,Silk Sanampao,13.7744018,100.5416337
1006,Silom City Resort,13.72403569,100.5323192
1007,Silom Condominuim,13.72778144,100.5347476
1008,Silom Grand Terrace,13.72770427,100.5359684
1009,Silom State Tower,13.7214837,100.5168931
1010,Silom Suite,13.72180344,100.5263884
1011,Silom Surawong,13.72795618,100.5289708
1012,Silom Terrace,13.7271501,100.5345793
1013,Silver Heritage,13.71860329,100.5792722
1014,Sindhorn Lumpini,13.73447715,100.5418543
1015,Sindhorn Residence,13.73875955,100.5440586
1016,Sindhorn Tonson,13.73439446,100.5445788
1017,Sinthanee Residence Tower,13.83346897,100.6628382
1018,Siri at Sukhumvit,13.72242777,100.5800766
1019,Siri On 8,13.7369812,100.556135
1020,Siri Residence,13.72820428,100.5682976
1021,SiriMetro Ratchada - Vipawadee,13.79613772,100.5647704
1022,Sky Walk Condominium,13.7144886,100.5935367
1023,Skyrise Avenue Sukhumvit 64,13.68397362,100.6082546
1024,Smart Condo Rama 2,13.66036715,100.4273489
1025,Smart Condo Watcharapol,13.85817604,100.6462864
1026,Smart Z Onnuch,13.72116259,100.7336258
1027,SO Origin Phahol 69 Station,13.89018024,100.604549
1028,SOCIO Reference 61,13.72473106,100.583112
1029,SOCIO Ruamrudee,13.73586837,100.5509872
1030,SOHO Bangkok Ratchada,13.77824366,100.5758953
1031,Somkid Gardens,13.74607552,100.5454835
1032,Somkid Place,13.74824971,100.5448999
1033,Sosu Nakorn Condo,13.85669022,100.5046961
1034,Sribumpen Condo Home,13.71810723,100.5507869
1035,Srivara Mansion,13.77023273,100.5699614
1036,Sriwara Garden Condominium,13.77183416,100.6120612
1037,St. Charm,13.7020552,100.6544495
1038,St. Louis Grand Terrace,13.71933793,100.5267678
1039,Star View,13.68794635,100.5181273
1040,Studio One Studio Zone,13.7782799,100.6144501
1041,Suan Thon Park Condo,13.65250352,100.4878251
1042,Sucharee Life 2 Laksi - Chaengwattana,13.88792804,100.5772489
1043,Sukhapiban 3 Mansion,13.7611596,100.647982
1044,Sukhumvit Casa,13.73618677,100.5567722
1045,Sukhumvit City Resort,13.7468873,100.5566774
1046,Sukhumvit Garden Place,13.6979636,100.6175648
1047,Sukhumvit House,13.73853661,100.5647707
1048,Sukhumvit Living Town,13.74614313,100.5621664
1049,Sukhumvit Park,13.73618022,100.5573398
1050,Sukhumvit Plus,13.71294693,100.5924187
1051,Sukhumvit Suite,13.7428816,100.5574566
1052,Suksawat Modern Condo View,13.6690022,100.5118535
1053,Sun City MRT Yaek Fai Chai,13.7530626,100.4680696
1054,Sunshine Condominium,13.6654946,100.6325928
1055,Supakarn Condominium,13.71828727,100.5103435
1056,Supalai Casa Riva,13.69575351,100.4938286
1057,Supalai City Resort Bearing Station Sukumvit 105,13.6612197,100.6058711
1058,Supalai City Resort Rama 8,13.77394416,100.4907834
1059,Supalai City Resort Ramkhamhaeng,13.7521021,100.611219
1060,Supalai City Resort Ratchada - Huaykwang,13.77157956,100.5774833
1061,Supalai City Resort Ratchayothin - Phaholyothin 32,13.83410446,100.5785303
1062,Supalai Cute Ratchayothin - Phaholyothin34,13.83782916,100.5815527
1063,Supalai Elite Phayathai,13.7571301,100.5394347
1064,Supalai Elite Sathorn - Suanplu,13.7210364,100.5371274
1065,Supalai Elite Surawong,13.7304275,100.5228442
1066,Supalai Lite Ratchada - Naradhiwas - Sathon,13.70244996,100.5417269
1067,Supalai Lite Sathorn - Charoenrat,13.70134618,100.5169512
1068,Supalai Loft @Talat Phlu Station,13.711346,100.4801725
1069,Supalai Loft Prajadhipok - Wongwian Yai,13.72913976,100.4945712
1070,Supalai Oriental Place Sathorn - Suanplu,13.7198082,100.5402726
1071,Supalai Oriental Sukhumvit 39,13.7449074,100.5733995
1072,Supalai Park Asoke-Ratchada,13.7560598,100.5609304
1073,Supalai Park Ekkamai - Thonglor,13.7431783,100.5891111
1074,Supalai Park Kaset,13.83881782,100.5807888
1075,Supalai Park Phaholyothin,13.8229339,100.5644709
1076,Supalai Park Ratchaphruek - Phetkasem,13.7188076,100.4561478
1077,Supalai Park Ratchayothin,13.83079821,100.5617319
1078,Supalai Park Srinakarin,13.67226908,100.6445496
1079,Supalai Place,13.74291867,100.5735256
1080,Supalai Premier @ Asoke,13.7479197,100.5653389
1081,Supalai Premier Charoen Nakhon,13.73016394,100.5070069
1082,Supalai Premier Narathiwas - Sathorn,13.6986608,100.5412098
1083,Supalai Premier Place Asoke,13.74453657,100.5631246
1084,Supalai Premier Ratchathewi,13.75479,100.5260011
1085,Supalai Premier Si Phraya-Samyan,13.730868,100.5222225
1086,Supalai Prima Riva,13.6885094,100.5492497
1087,Supalai Riva Grande,13.67771936,100.547712
1088,Supalai River Place,13.71057746,100.5029566
1089,Supalai River Resort,13.7076375,100.496204
1090,Supalai Veranda Rama 9,13.7566648,100.5832009
1091,Supalai Veranda Ramkhamhaeng,13.75855107,100.6283238
1092,Supalai Veranda Ratchavipha - Prachachuen,13.81810895,100.5347021
1093,Supalai Wellington,13.76628084,100.5792805
1094,Supalai Wellington 2,13.76618061,100.5811824
1095,Supattra Condotel,13.67762641,100.6234006
1096,Supreme Classic,13.7088811,100.5378809
1097,Supreme Condo Ratchawithi 3,13.76300587,100.5407009
1098,Supreme Elegance,13.70573224,100.5404827
1099,Supreme Legend,13.71154417,100.549382
1100,Supreme Place,13.71327156,100.5487578
1101,Supreme Residence,13.709135,100.5382227
1102,Supreme Ville,13.71487001,100.5455833
1103,Suwan Asia Condominium,13.68868302,100.5283167
1104,SYM Vibha-Ladprao,13.80679164,100.5586718
1105,Symphony Sukhumvit,13.69630123,100.6050525
1106,T - One Phaholyothin 32,13.833034,100.5738673
1107,T.C. Green,13.75452466,100.5751137
1108,T.P.J. Condo,13.73723712,100.5767348
1109,T.V.C. Condominium,13.77585963,100.5640626
1110,Tai Ping Towers,13.73729808,100.5899562
1111,Tait Sathorn 12,13.72264287,100.5263548
1112,Taka Haus Ekamai 12,13.72903185,100.5919652
1113,Tara Ruankaew,13.76209831,100.6142105
1114,Tara Ruen Ake,13.7623514,100.6149388
1115,Tawana Residence,13.82607364,100.5592883
1116,TEAL Sathorn-Taksin,13.72001575,100.4927663
1117,TELA Thonglor,13.73318234,100.5818796
1118,Tempo One Ramkhamhaeng Rama 9,13.7498739,100.6123321
1119,Tempo Quad Phaholyothin - Saphanmai,13.88981141,100.6058198
1120,TGold Condo Ladprao 93,13.7807151,100.6219589
1121,Thairong Tower,13.73586095,100.623944
1122,Than Living Ratchada - Prachautit,13.76694844,100.5986217
1123,Thana Arcadia,13.77533585,100.4848447
1124,Thana Astoria Pinklao,13.77875184,100.4874592
1125,Thana Tower,13.7747815,100.4851937
1126,Thana Tri,13.774365,100.4848171
1127,The Address Asoke,13.74965963,100.5619943
1128,The Address Chidlom,13.7481633,100.5456628
1129,The Address Pathumwan,13.75134096,100.5331816
1130,The Address Phayathai,13.75959856,100.5316848
1131,The Address Sathorn,13.72273359,100.525423
1132,The Address Siam,13.7519122,100.5341358
1133,The Address Siam Ratchathewi,13.7526066,100.5303344
1134,The Address Sukhumvit 28,13.7282517,100.5723852
1135,The Address Sukhumvit 42,13.71676148,100.5856239
1136,The Address Sukhumvit 61,13.72354624,100.5836142
1137,The Airport Residence,13.89743098,100.5856887
1138,The Alcove 49,13.72969938,100.5761219
1139,The Alcove Thonglor 10,13.73121471,100.5863633
1140,The Amethyst Sukhumvit 39,13.73560182,100.5749158
1141,The Aree Condominium,13.78190553,100.541455
1142,The Bangkok Narathiwas Ratchanakarint,13.70868394,100.533457
1143,The Bangkok Sathorn,13.71814737,100.5204808
1144,The Bangkok Sathorn - Taksin,13.7198953,100.5034866
1145,The Bangkok Thanon Sub,13.73115396,100.5274592
1146,The Bangkok Thonglor,13.72697045,100.5799814
1147,The Base Park East Sukhumvit 77,13.7134574,100.6003851
1148,The Base Park West Sukhumvit 77,13.7130193,100.6000635
1149,THE BASE Phetchaburi-Thonglor,13.745059,100.5823065
1150,The Base Phetkasem,13.7152846,100.4473042
1151,The Base Rama 9 - Ramkhamhaeng,13.7483969,100.6055443
1152,The Base Saphanmai,13.88788735,100.6049763
1153,THE BASE Sukhumvit 50,13.70494113,100.5920527
1154,The Base Sukhumvit 77,13.71126033,100.6023831
1155,The Bloom Sukhumvit 71,13.71391492,100.5949521
1156,The Breeze Narathiwas,13.696343,100.5446672
1157,The Cadogan Private Residence,13.74078913,100.5724274
1158,The Capital Ekamai-Thonglor,13.74374052,100.5869636
1159,The Capital Ratchaprarop - Vibha,13.764126,100.5462187
1160,The Classy Ratchadaphisek 19,13.8013889,100.5722763
1161,The Clover,13.7345269,100.5847536
1162,The Coast Bangkok,13.6713805,100.605605
1163,The Complete Narathiwat,13.7033394,100.5401927
1164,The Complete Rajprarop,13.76057752,100.5417123
1165,The Concord,13.74401924,100.5584735
1166,The Crest Park Residences,13.8140121,100.5610031
1167,The Crest Phahonyothin 11,13.78831759,100.5427601
1168,The Crest Sukhumvit 24,13.7292294,100.5660739
1169,The Crest Sukhumvit 34,13.7251152,100.5766215
1170,The Crest Sukhumvit 49,13.7304525,100.5770166
1171,The Cube Chaengwattana,13.88920431,100.5768908
1172,The Cube Nawamin - Ramintra,13.83511221,100.6599718
1173,The Cube Plus Minburi,13.8132454,100.7192027
1174,The Cube Plus Phaholyothin 56,13.93405202,100.6280093
1175,The Cube Pracha Uthit,13.6551169,100.4990545
1176,The Cube Premium Ramintra 34,13.84810582,100.6366321
1177,The Cube Ramkhamhaeng,13.7637791,100.643782
1178,The Cube Station Ramintra 109,13.8151701,100.6985053
1179,The Cube Urban Sthorn - Chan,13.70562635,100.5147047
1180,The Diplomat 39,13.73145333,100.5703785
1181,The Diplomat Sathorn,13.71999657,100.5220817
1182,The Editor Saphan Khwai,13.79420108,100.5494069
1183,The Elegant Ladprao 1,13.81410267,100.5655867
1184,The Emporio Place,13.7229874,100.5670927
1185,The Escape,13.68736052,100.6347082
1186,The ESSE Asoke,13.74323665,100.5615363
1187,The Esse at Singha Complex,13.7481297,100.5643576
1188,The ESSE Sukhumvit 36,13.7242137,100.5777574
1189,The Estate @ Thapra,13.73553758,100.4718594
1190,The Estelle Phrom Phong,13.72861209,100.5712245
1191,The Excel Bearing,13.662677,100.608231
1192,The excel hideaway,13.6644036,100.6089896
1193,The Excel Hideaway Sukhumvit 50,13.70592199,100.5909655
1194,The Excel Ladprao - Sutthisan,13.79140552,100.5922851
1195,The Excel Ratchada 18,13.78215067,100.5830887
1196,The Excel Udomsuk,13.67948247,100.624514
1197,The Executive Regent,13.7053765,100.5440814
1198,THE EXTRO Phayathai-Rangnam,13.76067189,100.5395202
1199,The Fah Aree,13.78236897,100.5424157
1200,The Fine @ River,13.71754142,100.5086268
1201,The FINE Bangkok Thonglor - Ekamai,13.73090345,100.5876085
1202,The Fine by Fine Home Ari 4 - Paholyothin,13.7810345,100.5411475
1203,THE GOLDEN MASTER,13.79723007,100.5700062
1204,The Great Condo Petchkasem 48,13.72129417,100.4409397
1205,The Green 2 @ Sukhumvit 101,13.695487,100.6225883
1206,The Green 3 @ Sukhumvit 101,13.69202833,100.6142497
1207,The Green Place,13.66608747,100.6321382
1208,The Hudson Sathorn 7,13.72148022,100.5338537
1209,The Infinity,13.7231005,100.5291057
1210,The Iris,13.74351233,100.6450244
1211,THE ISSARA LADPRAO,13.8086593,100.5676071
1212,The Key MRT Phetkasem 48,13.71637135,100.4464603
1213,The Key Phahonyothin,13.83627819,100.5800242
1214,The Key Rama 3,13.6894133,100.5043897
1215,The Key Sathorn - Charoenraj,13.70075478,100.5166557
1216,The Key Sathorn - Ratchapruek,13.71292762,100.4656072
1217,The Key Udomsuk,13.67438974,100.6527215
1218,The Key Wutthakat,13.71429624,100.468061
1219,THE KITH Plus Nawamin,13.83500064,100.6571283
1220,The Knight Sukhumvit 107,13.6575675,100.6061263
1221,The Kris Ratchada,13.78719646,100.5724818
1222,The Lakes,13.7335298,100.5604282
1223,The Lanai Sathorn,13.7121543,100.5493956
1224,The Leaf,13.7392625,100.6037406
1225,The Legacy Vibhavadi,13.809696,100.564717
1226,The Legend Saladaeng,13.7256148,100.537334
1227,The Light House,13.7223477,100.5087007
1228,The Light Ladprao,13.8103399,100.5653261
1229,The Light New York,13.6899562,100.604106
1230,The Line Asoke - Ratchada,13.7557494,100.5632598
1231,THE LINE Jatujak - Mochit,13.8058829,100.5565411
1232,THE LINE Phahol - Pradipat,13.7908656,100.5461123
1233,The Line Ratchathewi,13.7521551,100.533363
1234,The Line sukhumvit 101,13.69224366,100.6084566
1235,The Line Sukhumvit 71,13.7153444,100.5943316
1236,THE LINE Wongsawang,13.82896901,100.5261588
1237,The Link Sukhumvit 50,13.706596,100.5981059
1238,The Link Sukhumvit 64,13.6865608,100.6054973
1239,The Link Vano 64,13.68660159,100.6064301
1240,The LIVIN Phetkasem,13.71029404,100.4307781
1241,The Livin Ramkhamhaeng,13.76434788,100.6488841
1242,The Living Tower Sukhumvit 64/1,13.6851494,100.6062558
1243,The Lofts Asoke,13.74681239,100.5623904
1244,The Lofts Ekkamai,13.7183289,100.5876693
1245,The Lofts Sathorn,13.71588653,100.5507366
1246,The Lofts Silom,13.72335476,100.5226026
1247,The Lofts Yennakart,13.7087321,100.5456159
1248,The Log @ Sukhumvit 101/1,13.6859778,100.6351351
1249,The Lumpini 24,13.72266,100.5660665
1250,The Madison,13.7294496,100.5716429
1251,The Maple@Ratchada 19,13.8016176,100.5716932
1252,The Mark Ratchada - Airport Link,13.75508552,100.5612044
1253,The Master Centrium Asoke - Sukhumvit,13.7406578,100.561241
1254,The Master Sathorn Executive,13.7216545,100.5004161
1255,The Met,13.72212642,100.5343221
1256,The Monument Sanampao,13.7694373,100.5404896
1257,The Monument Thong Lo,13.7417312,100.5856003
1258,The Muse,13.6849846,100.6095264
1259,The Muve Pradipat,13.7913058,100.5471938
1260,The Natural Place Suite,13.7225509,100.5469354
1261,The Nest Chula-Samyan,13.7327553,100.5244871
1262,The Nest Ploenchit,13.7463338,100.5495256
1263,The Nest Sukhumvit 22,13.7249124,100.5632811
1264,The Nest Sukhumvit 64,13.68466048,100.6050023
1265,The Next Garden Mix,13.70311774,100.5996018
1266,The Next Garden Suite,13.7035525,100.5993117
1267,The Next Ladprao,13.8002222,100.5831346
1268,The Next Sukhumvit 52,13.7037092,100.5997354
1269,The Niche ID Ladprao 130,13.7716312,100.6304563
1270,The Niche ID Ladprao - Wang Hin,13.8083965,100.5892683
1271,The Niche Citi Ladprao 130,13.7710891,100.6304647
1272,The Niche ID Serithai,13.79758619,100.6950577
1273,The Niche Ladprao 48,13.7961725,100.5885829
1274,The Niche Mono Bangna,13.66482382,100.6373095
1275,The Niche Ratchada - Huay Kwang,13.7789214,100.5711423
1276,The Niche Taksin,13.7269958,100.491072
1277,The Ninth Place,13.6880126,100.6459859
1278,The Oleander,13.7464866,100.5566248
1279,The One Plus D (Phase 3) Hua Mak 12,13.7534071,100.6404093
1280,The One Plus Huamark 20,13.7531265,100.6374388
1281,The One Plus Srinakarin,13.7476377,100.6422074
1282,The origin Ratchada - Ladprao,13.80740348,100.5761906
1283,The Origin Sukhumvit 105,13.6625748,100.6174501
1284,The Oscar Phetkasem 58,13.713895,100.4309313
1285,The Pano Rama 3,13.671706,100.541619
1286,The Parco,13.7090735,100.5421365
1287,The Park Chidlom,13.7475151,100.5448968
1288,The Park Land 1,13.66777365,100.6507216
1289,The Parkland Charan Pinklao,13.77725889,100.4872207
1290,The Parkland Grand Asoke - Phetchaburi,13.74877213,100.5678814
1291,The Parkland Grand Taksin,13.7161269,100.4807026
1292,The Parkland Phetkasem,13.7099744,100.4093947
1293,The Parkland Phetkasem - Thapra,13.72804973,100.4781371
1294,The Parkland Phetkasem 56,13.713884,100.4332846
1295,The Parkland Ratchada - Thapra,13.7101849,100.4788743
1296,The Parkland Ratchada-Wongsawang,13.8288927,100.5274943
1297,The Parkland Srinakarin Lakeside,13.65079462,100.6461326
1298,The Parkland Srinakarin,13.6530734,100.6439341
1299,The Parkland Taksin - Thapra,13.71646392,100.481524
1300,The Peace,13.8148389,100.5724044
1301,The Peak Sukhumvit 15,13.7482282,100.5590206
1302,The Platinum,13.75044246,100.5385693
1303,The Plenary Sathorn,13.7224258,100.4986795
1304,The Point Ladprao 19,13.80801512,100.572903
1305,The Prague Condominium,13.75565352,100.5141212
1306,The President Charan-Yaek Fai Chai Station,13.7554907,100.4688519
1307,The President Phetkasem - Bangkhae,13.7144102,100.4068293
1308,The President Sathorn - Ratchaphruek,13.7206004,100.4587939
1309,The President Sathorn - Ratchaphruek 2,13.7194811,100.4588626
1310,The President Sathorn - Ratchaphruek 3,13.7198259,100.4593427
1311,The President Sukhumvit,13.5847686,100.6090876
1312,The Prime 11,13.74385949,100.5569728
1313,The Prime Suites,13.73270405,100.563028
1314,The Privacy Jatujak,13.8100825,100.5604004
1315,The Privacy Ladprao-Sena,13.8095637,100.5911461
1316,The Privacy Pracha Uthit - Suksawat,13.6616454,100.5027806
1317,The Privacy Rama 9,13.74415708,100.6035553
1318,The Privacy Ratchada - Sutthisan,13.78922975,100.58939
1319,The Privacy Taopoon Interchange,13.81176858,100.5326684
1320,The Privacy Thaphra Interchange,13.73144749,100.4725039
1321,The Private Residence Rajdamri,13.7354879,100.5404591
1322,The Prive Ratchadapisek 19,13.7958671,100.5645194
1323,The Prodigy Condo MRT Bangkhae,13.7131506,100.4264737
1324,The Prop Condominium,13.8961376,100.5658864
1325,The Raffles,13.8014809,100.5812798
1326,The Rajdamri,13.7398117,100.5411494
1327,The Remarkable Soonvijai 2,13.748368,100.5870372
1328,The Reserve - Kasemsan 3,13.7490642,100.5267774
1329,The Reserve 61 Hideaway,13.7295904,100.584314
1330,The Reserve Phahol - Pradipat,13.7902213,100.5474665
1331,The Reserve Sathorn,13.7223938,100.5368877
1332,The Residences At Mandarin Oriental,13.7277746,100.5109658
1333,The Residences at Sindhorn Kempinski Hotel Bangkok,13.7359391,100.5435275
1334,The Residences at The St. Regis Bangkok,13.7217484,100.541245
1335,The Rich Rama 9-Srinakarin,13.73736838,100.6429532
1336,The Rich Sathorn Taksin,13.7198477,100.4934518
1337,The Rise Sukhumvit 39,13.7356405,100.5732369
1338,The Ritz - Carlton Residences at MahaNakhon,13.7236714,100.5279916
1339,The River,13.7210569,100.5108409
1340,The River Side,13.70524299,100.4910852
1341,The Roof Garden On Nut,13.7025322,100.593961
1342,The Room BTS Wongwian Yai,13.7205699,100.4949683
1343,The Room Charoenkrung 30,13.72868874,100.5156127
1344,The Room Phayathai,13.75710892,100.5410589
1345,The Room Rama 4,13.73644285,100.5210696
1346,The Room Ratchada - Ladprao,13.80287158,100.5764097
1347,The Room Sathorn - St.Louis,13.70747084,100.5263921
1348,The Room Sathorn - Taksin,13.7177285,100.483488
1349,The room Sathorn - TanonPun,13.7223959,100.5234961
1350,The Room Sukhumvit 21,13.74377353,100.5613988
1351,The Room Sukhumvit 38,13.716981,100.5799882
1352,The Room Sukhumvit 62,13.6900006,100.6077129
1353,The Room Sukhumvit 64,13.6862001,100.6049005
1354,The Room Sukhumvit 69,13.7145187,100.5929339
1355,The Room Sukhumvit 79,13.7080403,100.6016776
1356,The Royal Maneeya,13.7425892,100.5416925
1357,The Royal Navin Tower,13.7149786,100.5533441
1358,The Saint Residences,13.8114673,100.5608637
1359,The Seed Memories Siam,13.7478805,100.5282783
1360,The Seed Mingle,13.719647,100.5393711
1361,The Seed Musee,13.7253983,100.5709905
1362,The Seed Phaholyothin,13.7868902,100.5478426
1363,The Seed Sathorn - Taksin,13.7234649,100.4963258
1364,The Seed Terre Ratchayothin,13.8303234,100.5697366
1365,The Selected Kaset - Ngamwongwan by L.P.N.,13.8456344,100.5645427
1366,The Series Udomsuk,13.67995079,100.6243501
1367,The Signature by URBANO,13.79296999,100.5483123
1368,The Signature Residence,13.7812669,100.5433865
1369,The Silk Phaholyothin - Aree 2,13.7793826,100.5414484
1370,The Silk Phaholyothin 3,13.7740277,100.541475
1371,The Sky Sukhumvit,13.6751486,100.6113672
1372,The Spirit Srinakarin,13.6748516,100.6477917
1373,The Stage Taopoon Interchange,13.8055791,100.5262873
1374,The Star Estate @ Narathiwas,13.6967683,100.5441358
1375,The Star Estate @ Rama 3,13.674797,100.5349288
1376,The Station Sathorn - Bangrak,13.7131949,100.5142019
1377,The Strand Thonglor,13.7242169,100.5796467
1378,The Surawong,13.7292196,100.5286427
1379,The Teak Bangna - Trad,13.6705784,100.6245709
1380,The Teak Ratchada 19,13.7988648,100.5738796
1381,The Teak Sathorn - Lumpini,13.7182253,100.5510078
1382,The Teak Sukhumvit 39,13.7407022,100.573559
1383,The Tempo Grand Sathorn - Wutthakat,13.7128036,100.4678668
1384,The Tempo Phaholyothin,13.7760393,100.5447044
1385,The Tempo Ratchada,13.7792026,100.5756636
1386,The Tempo Ruamrudee,13.7392675,100.5506248
1387,The Treasure Silom,13.7237344,100.5234529
1388,The Tree Bang Po Station,13.8081094,100.5221098
1389,The Tree Charan Bang Phlat,13.8002112,100.5074966
1390,The Tree Charansanitwong 30,13.7587398,100.4696572
1391,The Tree Condo Ladprao,13.8044943,100.5906353
1392,The Tree Interchange,13.8055102,100.5252806
1393,THE TREE Ladprao 15,13.8154156,100.572227
1394,The Tree Onnut Station,13.701763,100.6002727
1395,The Tree Privata,13.80085432,100.5197843
1396,The Tree RIO,13.8002112,100.5074966
1397,The Tree Sukhumvit 64,13.6869077,100.606809
1398,The Tree Sukhumvit 71 - Ekamai,13.7407572,100.599806
1399,The Trendy Condominium,13.741023,100.5576678
1400,The Trio Garden,13.7004049,100.6452083
1401,The Trust Residence Nuanchan,13.831272,100.6372618
1402,The Trust Residence Pinklao,13.7854311,100.4697343
1403,The Trust Residence Ratchada - Rama 3,13.694492,100.5360132
1404,The Unique 19,13.8018267,100.5722311
1405,The unique Kaset Nawamin,13.8323682,100.6254352
1406,The Unique Ladprao 10,13.8089455,100.5653831
1407,The Unique Ladprao 26,13.8056096,100.5730914
1408,The Unique Ratchada 19,13.8018267,100.5722311
1409,The Unique Sukhumvit 62/1,13.6919108,100.6032697
1410,The Vertical Aree,13.7786009,100.5424045
1411,The Village Condominium,13.6684562,100.6169284
1412,The Viva Condo Petchkasem 68,13.7120936,100.4167132
1413,The Waterford Diamond,13.7267046,100.573286
1414,The Waterford Park Sukhumvit 53,13.7308304,100.5782788
1415,The Waterford Rama 4,13.7083618,100.592771
1416,The Waterford Royal Suit Senanikom,13.8332338,100.578915
1417,The Waterford Sukhumvit 50,13.7067861,100.5930425
1418,The Wellington,13.6054428,100.6118511
1419,The Winning Tower,13.7313662,100.5980384
1420,The XXXIX by Sansiri,13.7323769,100.5705673
1421,The Zest Ladprao,13.8103253,100.5671253
1422,Thepleela Condo Town,13.766004,100.6123156
1423,Thew River Place,13.7770327,100.4974391
1424,Thonglor Tower,13.736348,100.583045
1425,Thru Thonglor,13.7441683,100.585446
1426,Tidy Deluxe Sukhumvit 34,13.7250602,100.5748029
1427,Tidy Thonglor,13.7357179,100.5815031
1428,Top View Tower,13.7247277,100.5817776
1429,Totnes Kaset - Nawamin,13.8317985,100.6209159
1430,Tourmaline Gold Sathorn - Taksin,13.7227571,100.5020421
1431,Tower Park,13.74776,100.555163
1432,Town Plus Kaset-Navamin,13.8207474,100.6366318
1433,Trapezo Sukhumvit 16,13.7257848,100.5619664
1434,Tree Condo Ekamai,13.7161658,100.5830311
1435,Tree Condo Ladprao 27,13.8043938,100.5782177
1436,Tree Condo Sukhumvit 42,13.7151258,100.5877522
1437,Tree Condo Sukhumvit 50,13.7044495,100.5994861
1438,Tree Condo Sukhumvit 52,13.70280487,100.6004277
1439,Tree Condo LUXE Sukhumvit 52,13.7024654,100.600148
1440,Tridhos City Marina,13.70852613,100.4965201
1441,TRIPLE Y RESIDENCE,13.7348476,100.5283725
1442,Tristan,13.7353358,100.5735197
1443,U Delight @ Bang Sue Station,13.8117112,100.5339134
1444,U Delight @ Bangson Station,13.8177712,100.5323636
1445,U Delight @ Huamak Station,13.75113216,100.6374922
1446,U Delight @ Huay Kwang Station,13.7722715,100.579785
1447,U Delight @ Jatujak Station,13.7984223,100.5562869
1448,U Delight @ Onnut Station,13.7110497,100.60388
1449,U Delight @Talat Phlu Station,13.70971054,100.4789961
1450,U Delight 2 @ Bang Sue Station,13.8190097,100.5361542
1451,U Delight 3 Prachachuen - Bang Sue,13.8250912,100.5369639
1452,U Delight Ratchavibha,13.8387093,100.5587316
1453,U Delight Residence Pattanakarn-Thonglor,13.7397173,100.602549
1454,U Delight Residence Riverfront Rama 3,13.67449949,100.5322115
1455,UNIO Charan 3,13.73203155,100.4672297
1456,Unio Rama 2 Thakham,13.6615904,100.4440255
1457,Unio Ramkhamhaeng - Serithai,13.7769756,100.6627664
1458,Unity Tower,13.6787298,100.6249059
1459,Up Ekamai,13.73905194,100.5886792
1460,Urbana Langsuan,13.7396277,100.5435138
1461,Urbana Sathorn,13.7228904,100.5360792
1462,Urbana Sukhumvit 15,13.7448332,100.5586255
1463,Urbano Absolute Sathon - Taksin,13.7209126,100.5070536
1464,Urbano Rajavithi,13.7839954,100.4963643
1465,Urbitia Thong Lo,13.7226096,100.5768695
1466,Vantage Ratchavipa,13.8307313,100.5601495
1467,Venio Sukhumvit 10,13.7348348,100.5570111
1468,Vento Condo Kaset - Navamin,13.8276678,100.6212367
1469,Veranda Residence,13.7443315,100.5983106
1470,Vertiq,13.73228115,100.5256498
1471,Via 31,13.7393359,100.5683844
1472,Via 49,13.730289,100.5758679
1473,Via Botani,13.7315763,100.5748823
1474,Vibhavadi Suite,13.810606,100.5635249
1475,Vibhavadi View,13.804831,100.5651013
1476,Villa Asoke,13.7483867,100.5617193
1477,Villa Chaya,13.7711037,100.6140759
1478,Villa Lasalle,13.6601525,100.6112504
1479,Villa Rachakhru,13.775981,100.5418603
1480,Villa Rachatewi,13.7542514,100.5326706
1481,Villa Sathorn,13.7213758,100.5042473
1482,Vincente Sukhumvit 49,13.7377304,100.5746314
1483,Vinn Sukhumvit 46,13.7138231,100.5904568
1484,Vino ratchada 32,13.818889,100.580862
1485,Vittorio,13.73085733,100.5710502
1486,Vivid Tower,13.732519,100.638493
1487,Von Napa Sukhumvit 38,13.7230414,100.5789697
1488,Voque Sukhumvit 16,13.727973,100.5607914
1489,Voque Sukhumvit 31,13.7420036,100.5667331
1490,Vtara Sukhumvit 36,13.7173332,100.5762944
1491,W.P. Central Condominium,13.8136901,100.564995
1492,Walden Asoke,13.7387031,100.5652052
1493,Wang Kasem Condo Town,13.704369,100.3842839
1494,Wanghin Condominium,13.8314385,100.5925212
1495,Waranya Place,13.8110739,100.5935759
1496,Wattana Suite,13.743686,100.5586546
1497,Watthana Heights,13.7402947,100.5612996
1498,We Condo Ekkamai - Ramindra,13.8473067,100.6403352
1499,Wealth Garden Family House,13.8097776,100.6111585
1500,Whizdom @ Punnawithi Station,13.68956595,100.6070438
1501,Whizdom 101,13.6857013,100.6110907
1502,Whizdom Avenue Ratchada - Ladprao,13.805165,100.5742029
1503,Whizdom Connect Sukhumvit,13.6863144,100.6124311
1504,Whizdom Essence,13.6858651,100.6124473
1505,Whizdom Inspire Sukhumvit,13.6852595,100.6120745
1506,Whizdom Station Ratchada - Thapra,13.71371812,100.4780482
1507,Wilshire,13.7282011,100.5650204
1508,Wind Ratchayothin,13.82853929,100.5666329
1509,Wind Sukhumvit 23,13.7397985,100.5644289
1510,Windsor Tower,13.7324854,100.5641097
1511,Wire Ratchada 19,13.8006924,100.5734358
1512,Wish @ Samyan,13.732188,100.5265177
1513,Wish @ Siam,13.7514148,100.5280989
1514,Wish Signature Midtown Siam,13.7514715,100.5345113
1515,Wittayu Complex,13.7486926,100.5492755
1516,Wongwaen Complex,13.66598881,100.4078754
1517,WYNE Sukhumvit,13.7128516,100.5942398
1518,Wynn Condo Phahon Yothin 52,13.8949828,100.6119467
1519,XT Ekkamai,13.7337829,100.5869721
1520,XT Huaikhwang,13.7804854,100.5750597
1521,XT Phayathai,13.7572349,100.5388489
1522,XVI The Sixteenth Condominum,13.7251016,100.5617975
1523,Yada Residential,13.7378103,100.5731879
1524,Yong Charoen Complex,13.69338197,100.6385534
1525,You 2 Condo @ Yak Kaset,13.8363741,100.5822144
1526,Z 2 Condominium,13.81020711,100.5667672
1527,Zenith Place @ Huay Kwang,13.7771558,100.5792757
1528,Ideo Mobi Phayathai,13.759109,100.532878
